[
    {"iata_code": "SIN", "icao_code": "WSSS", "name": "Singapore Changi Airport", "city": "Singapore", "country_fk": "SGP", "latitude": 1.3592, "longitude": 103.989, "altitude": 22, "IsDeleted": false},
    {"iata_code": "JFK", "icao_code": "KJFK", "name": "John F. Kennedy Intl Airport", "city": "New York", "country_fk": "USA", "latitude": 40.6413, "longitude": -73.7781, "altitude": 13, "IsDeleted": false},
    {"iata_code": "LHR", "icao_code": "EGLL", "name": "London Heathrow Airport", "city": "London", "country_fk": "GBR", "latitude": 51.4706, "longitude": -0.4609, "altitude": 83, "IsDeleted": false},
    {"iata_code": "NRT", "icao_code": "RJAA", "name": "Narita International Airport", "city": "Tokyo", "country_fk": "JPN", "latitude": 35.7647, "longitude": 140.386, "altitude": 139, "IsDeleted": false},
    {"iata_code": "PEK", "icao_code": "ZBAA", "name": "Beijing Capital Intl Airport", "city": "Beijing", "country_fk": "CHN", "latitude": 40.0799, "longitude": 116.603, "altitude": 185, "IsDeleted": false},
    {"iata_code": "FRA", "icao_code": "EDDF", "name": "Frankfurt Airport", "city": "Frankfurt", "country_fk": "DEU", "latitude": 50.0379, "longitude": 8.5622, "altitude": 364, "IsDeleted": false},
    {"iata_code": "CDG", "icao_code": "LFPG", "name": "Charles de Gaulle Airport", "city": "Paris", "country_fk": "FRA", "latitude": 49.0097, "longitude": 2.5479, "altitude": 392, "IsDeleted": false},
    {"iata_code": "DEL", "icao_code": "VIDP", "name": "Indira Gandhi Intl Airport", "city": "New Delhi", "country_fk": "IND", "latitude": 28.5665, "longitude": 77.1039, "altitude": 777, "IsDeleted": false},
    {"iata_code": "ICN", "icao_code": "RKSI", "name": "Incheon International Airport", "city": "Seoul", "country_fk": "KOR", "latitude": 37.4691, "longitude": 126.451, "altitude": 23, "IsDeleted": false},
    {"iata_code": "YYZ", "icao_code": "CYYZ", "name": "Toronto Pearson Intl Airport", "city": "Toronto", "country_fk": "CAN", "latitude": 43.6777, "longitude": -79.6248, "altitude": 569, "IsDeleted": false},
    {"iata_code": "MEX", "icao_code": "MMMX", "name": "Mexico City Intl Airport", "city": "Mexico City", "country_fk": "MEX", "latitude": 19.4363, "longitude": -99.0721, "altitude": 7362, "IsDeleted": false},
    {"iata_code": "GRU", "icao_code": "SBGR", "name": "São Paulo–Guarulhos Intl", "city": "São Paulo", "country_fk": "BRA", "latitude": -23.4356, "longitude": -46.4731, "altitude": 2459, "IsDeleted": false},
    {"iata_code": "CAI", "icao_code": "HECA", "name": "Cairo International Airport", "city": "Cairo", "country_fk": "EGY", "latitude": 30.1219, "longitude": 31.4056, "altitude": 382, "IsDeleted": false},
    {"iata_code": "RUH", "icao_code": "OERK", "name": "King Khalid Intl Airport", "city": "Riyadh", "country_fk": "SAU", "latitude": 24.9575, "longitude": 46.6988, "altitude": 2026, "IsDeleted": false},
    {"iata_code": "DXB", "icao_code": "OMDB", "name": "Dubai International Airport", "city": "Dubai", "country_fk": "ARE", "latitude": 25.2532, "longitude": 55.3656, "altitude": 62, "IsDeleted": false},
    {"iata_code": "IST", "icao_code": "LTFM", "name": "Istanbul Airport", "city": "Istanbul", "country_fk": "TUR", "latitude": 41.2753, "longitude": 28.734, "altitude": 325, "IsDeleted": false},
    {"iata_code": "SVO", "icao_code": "UUEE", "name": "Sheremetyevo Intl Airport", "city": "Moscow", "country_fk": "RUS", "latitude": 55.9726, "longitude": 37.4146, "altitude": 627, "IsDeleted": false},
    {"iata_code": "SYD", "icao_code": "YSSY", "name": "Sydney Airport", "city": "Sydney", "country_fk": "AUS", "latitude": -33.9461, "longitude": 151.177, "altitude": 21, "IsDeleted": false},
    {"iata_code": "AKL", "icao_code": "NZAA", "name": "Auckland Airport", "city": "Auckland", "country_fk": "NZL", "latitude": -37.0082, "longitude": 174.792, "altitude": 23, "IsDeleted": false},
    {"iata_code": "KUL", "icao_code": "WMKK", "name": "Kuala Lumpur Intl Airport", "city": "Kuala Lumpur", "country_fk": "MYS", "latitude": 2.7433, "longitude": 101.693, "altitude": 72, "IsDeleted": false},
    {"iata_code": "BKK", "icao_code": "VTBS", "name": "Suvarnabhumi Airport", "city": "Bangkok", "country_fk": "THA", "latitude": 13.6811, "longitude": 100.747, "altitude": 5, "IsDeleted": false},
    {"iata_code": "SGN", "icao_code": "VVTS", "name": "Tan Son Nhat Intl Airport", "city": "Ho Chi Minh City", "country_fk": "VNM", "latitude": 10.8189, "longitude": 106.651, "altitude": 33, "IsDeleted": false},
    {"iata_code": "MNL", "icao_code": "RPLL", "name": "Ninoy Aquino Intl Airport", "city": "Manila", "country_fk": "PHL", "latitude": 14.5097, "longitude": 121.019, "altitude": 75, "IsDeleted": false},
    {"iata_code": "CGK", "icao_code": "WIII", "name": "Soekarno–Hatta Intl Airport", "city": "Jakarta", "country_fk": "IDN", "latitude": -6.1256, "longitude": 106.655, "altitude": 36, "IsDeleted": false},
    {"iata_code": "ISB", "icao_code": "OPRN", "name": "Islamabad International Airport", "city": "Islamabad", "country_fk": "PAK", "latitude": 33.5487, "longitude": 72.8441, "altitude": 1715, "IsDeleted": false},
    {"iata_code": "BOG", "icao_code": "SKBO", "name": "El Dorado Intl Airport", "city": "Bogotá", "country_fk": "COL", "latitude": 4.7016, "longitude": -74.1469, "altitude": 8360, "IsDeleted": false},
    {"iata_code": "EZE", "icao_code": "SAEZ", "name": "Ministro Pistarini Intl Airport", "city": "Buenos Aires", "country_fk": "ARG", "latitude": -34.8222, "longitude": -58.5358, "altitude": 67, "IsDeleted": false},
    {"iata_code": "MAD", "icao_code": "LEMD", "name": "Adolfo Suárez Madrid–Barajas", "city": "Madrid", "country_fk": "ESP", "latitude": 40.4719, "longitude": -3.5626, "altitude": 1988, "IsDeleted": false},
    {"iata_code": "FCO", "icao_code": "LIRF", "name": "Fiumicino – Leonardo da Vinci Intl", "city": "Rome", "country_fk": "ITA", "latitude": 41.8003, "longitude": 12.2389, "altitude": 13, "IsDeleted": false},
    {"iata_code": "AMS", "icao_code": "EHAM", "name": "Amsterdam Airport Schiphol", "city": "Amsterdam", "country_fk": "NLD", "latitude": 52.3086, "longitude": 4.7639, "altitude": -11, "IsDeleted": false},
    {"iata_code": "BRU", "icao_code": "EBBR", "name": "Brussels Airport", "city": "Brussels", "country_fk": "FRA", "latitude": 50.9014, "longitude": 4.4844, "altitude": 184, "IsDeleted": false},
    {"iata_code": "ZRH", "icao_code": "LSZH", "name": "Zurich Airport", "city": "Zurich", "country_fk": "CHE", "latitude": 47.4514, "longitude": 8.5617, "altitude": 1416, "IsDeleted": false},
    {"iata_code": "ARN", "icao_code": "ESSA", "name": "Stockholm Arlanda Airport", "city": "Stockholm", "country_fk": "SWE", "latitude": 59.6498, "longitude": 17.9238, "altitude": 138, "IsDeleted": false},
    {"iata_code": "OSL", "icao_code": "ENRO", "name": "Oslo Airport, Gardermoen", "city": "Oslo", "country_fk": "NOR", "latitude": 60.1939, "longitude": 11.1004, "altitude": 681, "IsDeleted": false},
    {"iata_code": "CPH", "icao_code": "EKCH", "name": "Copenhagen Airport", "city": "Copenhagen", "country_fk": "DEU", "latitude": 55.6179, "longitude": 12.6556, "altitude": 16, "IsDeleted": false},
    {"iata_code": "HEL", "icao_code": "EFHK", "name": "Helsinki Airport", "city": "Helsinki", "country_fk": "FIN", "latitude": 60.3172, "longitude": 24.9631, "altitude": 180, "IsDeleted": false},
    {"iata_code": "WAW", "icao_code": "EPWA", "name": "Warsaw Chopin Airport", "city": "Warsaw", "country_fk": "POL", "latitude": 52.1658, "longitude": 20.9671, "altitude": 361, "IsDeleted": false},
    {"iata_code": "VIE", "icao_code": "LOWW", "name": "Vienna International Airport", "city": "Vienna", "country_fk": "AUT", "latitude": 48.1103, "longitude": 16.5697, "altitude": 600, "IsDeleted": false},
    {"iata_code": "LIS", "icao_code": "LPPT", "name": "Humberto Delgado Airport", "city": "Lisbon", "country_fk": "PRT", "latitude": 38.775, "longitude": -9.1357, "altitude": 374, "IsDeleted": false},
    {"iata_code": "ATH", "icao_code": "LGAV", "name": "Athens International Airport", "city": "Athens", "country_fk": "GRC", "latitude": 37.9364, "longitude": 23.9445, "altitude": 334, "IsDeleted": false},
    {"iata_code": "TPE", "icao_code": "RCTP", "name": "Taiwan Taoyuan Intl Airport", "city": "Taipei", "country_fk": "CHN", "latitude": 25.0777, "longitude": 121.233, "altitude": 96, "IsDeleted": false},
    {"iata_code": "DOH", "icao_code": "OTBD", "name": "Hamad International Airport", "city": "Doha", "country_fk": "QAT", "latitude": 25.273, "longitude": 51.611, "altitude": 13, "IsDeleted": false},
    {"iata_code": "KWI", "icao_code": "OKKK", "name": "Kuwait International Airport", "city": "Kuwait City", "country_fk": "ARE", "latitude": 29.2278, "longitude": 47.965, "altitude": 194, "IsDeleted": false},
    {"iata_code": "BAH", "icao_code": "OBBI", "name": "Bahrain International Airport", "city": "Manama", "country_fk": "ARE", "latitude": 26.2625, "longitude": 50.6083, "altitude": 6, "IsDeleted": false},
    {"iata_code": "MCT", "icao_code": "OOMS", "name": "Muscat International Airport", "city": "Muscat", "country_fk": "ARE", "latitude": 23.5933, "longitude": 58.2789, "altitude": 49, "IsDeleted": false},
    {"iata_code": "JNB", "icao_code": "FAOR", "name": "O. R. Tambo Intl Airport", "city": "Johannesburg", "country_fk": "ZAF", "latitude": -26.1392, "longitude": 28.246, "altitude": 5558, "IsDeleted": false},
    {"iata_code": "NBO", "icao_code": "HKJK", "name": "Jomo Kenyatta Intl Airport", "city": "Nairobi", "country_fk": "KEN", "latitude": -1.3193, "longitude": 36.9276, "altitude": 5339, "IsDeleted": false},
    {"iata_code": "LOS", "icao_code": "DNMM", "name": "Murtala Muhammed Intl Airport", "city": "Lagos", "country_fk": "NGA", "latitude": 6.577, "longitude": 3.3256, "altitude": 135, "IsDeleted": false},
    {"iata_code": "LIM", "icao_code": "SPJC", "name": "Jorge Chávez Intl Airport", "city": "Lima", "country_fk": "PER", "latitude": -12.0219, "longitude": -77.1147, "altitude": 113, "IsDeleted": false},
    {"iata_code": "SCL", "icao_code": "SCEL", "name": "Arturo Merino Benítez Intl", "city": "Santiago", "country_fk": "CHL", "latitude": -33.393, "longitude": -70.7858, "altitude": 1555, "IsDeleted": false},
    {"iata_code": "BOM", "icao_code": "VABB", "name": "Chhatrapati Shivaji Maharaj Intl", "city": "Mumbai", "country_fk": "IND", "latitude": 19.088, "longitude": 72.867, "altitude": 36, "IsDeleted": false},
    {"iata_code": "BLR", "icao_code": "VOBL", "name": "Kempegowda International Airport", "city": "Bengaluru", "country_fk": "IND", "latitude": 13.197, "longitude": 77.706, "altitude": 3000, "IsDeleted": false},
    {"iata_code": "HND", "icao_code": "RJTT", "name": "Tokyo Haneda Airport", "city": "Tokyo", "country_fk": "JPN", "latitude": 35.552, "longitude": 139.78, "altitude": 35, "IsDeleted": false},
    {"iata_code": "GVA", "icao_code": "LSGG", "name": "Geneva Airport", "city": "Geneva", "country_fk": "CHE", "latitude": 46.238, "longitude": 6.108, "altitude": 1419, "IsDeleted": false},
    {"iata_code": "DUB", "icao_code": "EIDW", "name": "Dublin Airport", "city": "Dublin", "country_fk": "IRL", "latitude": 53.421, "longitude": -6.27, "altitude": 242, "IsDeleted": false},
    {"iata_code": "MIA", "icao_code": "KMIA", "name": "Miami International Airport", "city": "Miami", "country_fk": "USA", "latitude": 25.793, "longitude": -80.29, "altitude": 8, "IsDeleted": false},
    {"iata_code": "LAX", "icao_code": "KLAX", "name": "Los Angeles International Airport", "city": "Los Angeles", "country_fk": "USA", "latitude": 33.942, "longitude": -118.40, "altitude": 125, "IsDeleted": false},
    {"iata_code": "KHI", "icao_code": "OPKC", "name": "Jinnah International Airport", "city": "Karachi", "country_fk": "PAK", "latitude": 24.895, "longitude": 67.167, "altitude": 115, "IsDeleted": false},
    {"iata_code": "TLV", "icao_code": "LLBG", "name": "Ben Gurion Airport", "city": "Tel Aviv", "country_fk": "PSE", "latitude": 32.000, "longitude": 34.881, "altitude": 135, "IsDeleted": false},
    {"iata_code": "CMN", "icao_code": "GMMN", "name": "Mohammed V Intl Airport", "city": "Casablanca", "country_fk": "MAR", "latitude": 33.367, "longitude": -7.589, "altitude": 656, "IsDeleted": false},
    {"iata_code": "ACC", "icao_code": "DGAA", "name": "Kotoka International Airport", "city": "Accra", "country_fk": "GHA", "latitude": 5.605, "longitude": -0.166, "altitude": 205, "IsDeleted": false},
    {"iata_code": "ALG", "icao_code": "DAAG", "name": "Houari Boumediene Airport", "city": "Algiers", "country_fk": "DZA", "latitude": 36.691, "longitude": 3.216, "altitude": 82, "IsDeleted": false},
    {"iata_code": "BUD", "icao_code": "LHBP", "name": "Budapest Ferenc Liszt Intl", "city": "Budapest", "country_fk": "HUN", "latitude": 47.433, "longitude": 19.255, "altitude": 495, "IsDeleted": false},
    {"iata_code": "PRG", "icao_code": "LKPR", "name": "Václav Havel Airport Prague", "city": "Prague", "country_fk": "CZE", "latitude": 50.101, "longitude": 14.296, "altitude": 1248, "IsDeleted": false},
    {"iata_code": "OTP", "icao_code": "LROP", "name": "Henri Coandă Intl Airport", "city": "Bucharest", "country_fk": "ROU", "latitude": 44.570, "longitude": 26.102, "altitude": 314, "IsDeleted": false}
]